,City,Country,Date,Lat,Lng,Max Temp,Humidity,Cloudiness,Wind Speed
0,Touros,BR,2022-02-11 23:43:05,-5.1989,-35.4608,83.3,77,75,11.92
1,Albany,US,2022-02-11 23:56:30,42.6001,-73.9662,50.58,55,89,10.09
2,Danane,CI,2022-02-11 23:56:31,7.2596,-8.155,68.72,27,48,2.59
3,Riyadh,SA,2022-02-11 23:56:31,24.6877,46.7219,57.34,46,3,11.68
4,Castro,BR,2022-02-11 23:56:32,-24.7911,-50.0119,65.57,78,59,8.3
5,Huilong,CN,2022-02-11 23:52:22,31.8111,121.655,47.03,78,99,8.5
6,Karpogory,RU,2022-02-11 23:56:32,64.0019,44.4451,20.55,96,98,5.53
7,The Valley,AI,2022-02-11 23:56:32,18.217,-63.0578,77.14,69,20,14.97
8,Broken Hill,AU,2022-02-11 23:55:57,-31.95,141.4333,69.51,40,0,14.97
9,Rikitea,PF,2022-02-11 23:56:33,-23.1203,-134.9692,79.32,73,1,16.62
10,Luderitz,NA,2022-02-11 23:56:33,-26.6481,15.1594,75.97,64,94,11.03
11,Kodiak,US,2022-02-11 23:56:33,57.79,-152.4072,38.71,93,100,5.75
12,Atuona,PF,2022-02-11 23:56:34,-9.8,-139.0333,77.92,75,3,11.95
13,Hobart,AU,2022-02-11 23:56:34,-42.8794,147.3294,66.22,61,75,4.61
14,Tarapur,IN,2022-02-11 23:56:34,19.85,72.7,69.8,44,10,6.46
15,Thompson,CA,2022-02-11 23:56:35,55.7435,-97.8558,-14.64,58,20,6.91
16,Sabha,LY,2022-02-11 23:56:35,27.0377,14.4283,50.2,32,0,8.21
17,Punta Arenas,CL,2022-02-11 23:56:35,-53.15,-70.9167,55.51,71,75,32.21
18,Geraldton,AU,2022-02-11 23:56:36,-28.7667,114.6,75.61,78,75,5.75
19,Praya,CV,2022-02-11 23:56:36,14.9215,-23.5087,77.54,44,58,17.27
20,Arraial Do Cabo,BR,2022-02-11 23:55:17,-22.9661,-42.0278,73.36,85,100,2.3
21,Hilo,US,2022-02-11 23:56:37,19.7297,-155.09,78.8,75,18,3.0
22,Hollola,FI,2022-02-11 23:56:37,61.05,25.4333,18.01,90,8,9.06
23,Ulladulla,AU,2022-02-11 23:56:37,-35.35,150.4667,70.7,77,96,10.04
24,Clyde River,CA,2022-02-11 23:48:25,70.4692,-68.5914,-16.37,76,100,32.21
25,Busselton,AU,2022-02-11 23:53:21,-33.65,115.3333,68.86,75,16,7.45
26,Chuy,UY,2022-02-11 23:52:25,-33.6971,-53.4616,72.57,86,46,14.63
27,Mataura,NZ,2022-02-11 23:56:38,-46.1927,168.8643,58.48,54,90,9.98
28,Mahebourg,MU,2022-02-11 23:56:38,-20.4081,57.7,75.25,94,20,5.75
29,Ushuaia,AR,2022-02-11 23:56:39,-54.8,-68.3,51.46,82,100,10.36
30,Alta Floresta,BR,2022-02-11 23:56:39,-9.8756,-56.0861,72.3,96,98,1.39
31,Butaritari,KI,2022-02-11 23:56:39,3.0707,172.7902,81.86,78,80,16.11
32,Marsh Harbour,BS,2022-02-11 23:56:40,26.5412,-77.0636,74.39,76,74,13.27
33,Ribeira Grande,PT,2022-02-11 23:56:40,38.5167,-28.7,60.19,74,88,10.54
34,Port Elizabeth,ZA,2022-02-11 23:56:40,-33.918,25.5701,66.18,83,0,3.24
35,Antofagasta,CL,2022-02-11 23:52:28,-23.65,-70.4,69.08,77,4,6.15
36,San,ML,2022-02-11 23:56:41,13.3034,-4.8956,71.69,14,3,9.51
37,Chikwawa,MW,2022-02-11 23:56:41,-16.0335,34.8009,72.77,89,77,1.19
38,Bredasdorp,ZA,2022-02-11 23:56:42,-34.5322,20.0403,69.12,73,15,3.44
39,Narsaq,GL,2022-02-11 23:47:16,60.9167,-46.05,23.22,78,100,6.38
40,Coquimbo,CL,2022-02-11 23:49:50,-29.9533,-71.3436,69.53,64,0,11.5
41,Agadez,NE,2022-02-11 23:56:42,19.75,10.25,56.79,27,0,4.7
42,Kloulklubed,PW,2022-02-11 23:51:22,7.0419,134.2556,82.71,75,40,18.7
43,Jamestown,US,2022-02-11 23:56:42,42.097,-79.2353,45.09,51,100,11.01
44,Louny,CZ,2022-02-11 23:57:43,50.357,13.7967,38.64,81,89,6.17
45,Antalaha,MG,2022-02-11 23:57:43,-14.9003,50.2788,72.37,90,6,5.28
46,Asau,RO,2022-02-11 23:57:44,46.4333,26.4,36.39,90,61,6.15
47,Vaini,TO,2022-02-11 23:57:44,-21.2,-175.2,86.16,84,20,8.05
48,Chiang Klang,TH,2022-02-11 23:57:44,19.2938,100.8617,67.33,93,21,0.94
49,Champerico,GT,2022-02-11 23:51:00,14.3,-91.9167,91.94,63,2,9.22
50,Hermanus,ZA,2022-02-11 23:57:45,-34.4187,19.2345,64.9,89,1,7.7
51,Peleduy,RU,2022-02-11 23:57:45,59.6289,112.7406,-10.46,98,100,3.09
52,Qaanaaq,GL,2022-02-11 23:57:45,77.484,-69.3632,-23.06,55,0,7.63
53,Ilulissat,GL,2022-02-11 23:53:33,69.2167,-51.1,24.8,88,100,6.76
54,Palmer,US,2022-02-11 23:57:46,42.1584,-72.3287,47.14,46,42,5.99
55,Bluff,NZ,2022-02-11 23:57:46,-46.6,168.3333,58.8,66,55,19.22
56,Port Alfred,ZA,2022-02-11 23:57:47,-33.5906,26.891,70.81,87,3,4.72
57,New Norfolk,AU,2022-02-11 23:57:47,-42.7826,147.0587,65.88,46,19,3.0
58,Henties Bay,NA,2022-02-11 23:48:40,-22.116,14.2845,69.85,87,38,8.7
59,Nanfeng,CN,2022-02-11 23:57:47,23.7434,111.7959,51.22,90,100,3.02
60,Constitucion,CL,2022-02-11 23:57:48,-35.3333,-72.4167,59.45,68,0,11.05
61,Kapaa,US,2022-02-11 23:57:48,22.0752,-159.319,82.11,74,0,1.99
62,Pangnirtung,CA,2022-02-11 23:52:25,66.1451,-65.7125,5.0,47,100,6.91
63,Leningradskiy,RU,2022-02-11 23:57:48,69.3833,178.4167,-18.8,96,97,4.38
64,Freeport,US,2022-02-11 23:50:36,40.6576,-73.5832,51.96,72,0,20.71
65,Sao Felix Do Xingu,BR,2022-02-11 23:57:49,-6.6447,-51.995,72.48,97,64,1.34
66,Avarua,CK,2022-02-11 23:55:31,-21.2078,-159.775,84.25,74,44,10.36
67,San Roque,ES,2022-02-11 23:57:49,36.2107,-5.3842,54.41,81,31,8.3
68,Dingle,PH,2022-02-11 23:48:41,10.9995,122.6711,77.61,89,100,11.05
69,Vero Beach,US,2022-02-11 23:56:18,27.6386,-80.3973,72.05,79,78,3.0
70,Magadan,RU,2022-02-11 23:57:50,59.5667,150.8,0.68,73,89,3.69
71,Cumberland,US,2022-02-11 23:57:50,35.0502,-78.8664,61.14,40,94,8.25
72,Kyrylivka,UA,2022-02-11 23:57:50,46.3759,35.3675,40.06,92,5,11.34
73,Nuuk,GL,2022-02-11 23:57:51,64.1835,-51.7216,32.88,69,100,14.36
74,Puerto Ayora,EC,2022-02-11 23:57:51,-0.7393,-90.3518,72.55,99,80,3.0
75,Ponta Do Sol,PT,2022-02-11 23:57:51,32.6667,-17.1,64.06,76,27,6.69
76,Wanning,CN,2022-02-11 23:57:52,18.8003,110.3967,67.59,85,100,7.74
77,Mount Gambier,AU,2022-02-11 23:51:12,-37.8333,140.7667,66.11,59,0,14.97
78,Soyo,AO,2022-02-11 23:57:52,-6.1349,12.3689,77.22,85,32,5.91
79,Sitka,US,2022-02-11 23:57:52,57.0531,-135.33,40.24,97,100,9.4
80,Saint-Philippe,RE,2022-02-11 23:57:53,-21.3585,55.7679,76.59,71,20,6.31
81,Lebu,CL,2022-02-11 23:57:53,-37.6167,-73.65,59.0,76,0,23.06
82,Rio Cuarto,AR,2022-02-11 23:57:53,-33.1307,-64.3499,60.57,94,100,16.11
83,Rio De Janeiro,BR,2022-02-11 23:56:05,-22.9028,-43.2075,77.92,83,100,5.75
84,Ingham,US,2022-02-11 23:57:54,42.6,-84.3833,37.35,91,100,6.91
85,Padang,ID,2022-02-11 23:57:54,-0.9492,100.3543,75.25,77,100,2.86
86,Ilo,PE,2022-02-11 23:57:54,-17.6394,-71.3375,69.96,77,9,5.75
87,Saskylakh,RU,2022-02-11 23:57:55,71.9167,114.0833,7.09,90,98,14.76
88,Kalat,PK,2022-02-11 23:57:55,29.0225,66.5916,40.77,17,0,3.36
89,Isangel,VU,2022-02-11 23:57:55,-19.55,169.2667,86.11,74,75,4.61
90,Cape Town,ZA,2022-02-11 23:56:32,-33.9258,18.4232,68.88,81,0,17.27
91,Esperance,AU,2022-02-11 23:58:56,-33.8667,121.9,75.04,94,100,2.01
92,Teno,CL,2022-02-11 23:58:56,-34.8667,-71.1833,81.95,18,0,8.05
93,Bollnas,SE,2022-02-11 23:58:56,61.3482,16.3946,29.39,67,85,12.33
94,Meulaboh,ID,2022-02-11 23:54:52,4.1363,96.1285,75.33,85,99,2.8
95,Iqaluit,CA,2022-02-11 23:58:57,63.7506,-68.5145,-2.31,84,100,3.44
96,Nome,US,2022-02-11 23:58:57,64.5011,-165.4064,-9.06,80,79,9.37
97,Torbay,CA,2022-02-11 23:58:58,47.6666,-52.7314,36.57,82,0,23.02
98,Husavik,IS,2022-02-11 23:58:58,66.0449,-17.3389,22.91,87,99,8.41
99,Fortuna,US,2022-02-11 23:58:04,40.5982,-124.1573,73.42,60,0,9.22
100,Georgetown,MY,2022-02-11 23:57:33,5.4112,100.3354,77.9,92,20,2.3
101,Ullapool,GB,2022-02-11 23:58:59,57.8987,-5.1604,44.35,89,97,12.59
102,Nishihara,JP,2022-02-11 23:58:59,26.1842,127.7558,69.08,73,75,11.5
103,Noshiro,JP,2022-02-11 23:58:59,40.2039,140.0242,27.54,81,31,4.81
104,Altamont,US,2022-02-11 23:58:59,42.2068,-121.7372,59.9,30,0,4.0
105,Hamilton,US,2022-02-11 23:45:30,39.1834,-84.5333,51.73,76,100,16.11
106,Darovskoy,RU,2022-02-11 23:59:00,58.77,47.9564,23.58,97,99,4.79
107,Cidreira,BR,2022-02-11 23:59:00,-30.1811,-50.2056,74.55,82,0,21.09
108,Yellowknife,CA,2022-02-11 23:59:01,62.456,-114.3525,-7.08,71,40,3.44
109,Aksarka,RU,2022-02-11 23:59:01,66.5606,67.7975,-2.96,88,100,11.1
110,Rocha,UY,2022-02-11 23:56:26,-34.4833,-54.3333,69.53,92,88,4.76
111,Deep River,CA,2022-02-11 23:59:01,46.1001,-77.4995,36.95,98,100,7.94
112,Lompoc,US,2022-02-11 23:59:02,34.6391,-120.4579,86.14,42,2,6.64
113,Santa Rosalia,MX,2022-02-11 23:59:02,27.3167,-112.2833,68.85,33,0,3.36
114,Tiksi,RU,2022-02-11 23:59:02,71.6872,128.8694,-12.1,92,99,17.47
115,Rovnoye,RU,2022-02-11 23:59:03,50.7765,46.0509,34.45,98,100,18.3
116,Kruisfontein,ZA,2022-02-11 23:54:48,-34.0033,24.7314,61.2,86,0,1.41
117,Raudeberg,NO,2022-02-11 23:59:03,61.9875,5.1352,38.19,92,100,8.99
118,Hay River,CA,2022-02-11 23:59:04,60.8156,-115.7999,-2.22,71,40,6.91
119,Cherskiy,RU,2022-02-11 23:59:04,68.75,161.3,-34.51,99,94,6.71
120,Suluq,LY,2022-02-11 23:59:04,31.6682,20.2521,52.02,72,2,2.77
121,Tototlan,MX,2022-02-11 23:59:05,20.55,-102.8,70.97,16,0,9.78
122,Andi,RU,2022-02-11 23:59:05,42.7836,46.2617,23.41,72,25,2.82
123,Mar Del Plata,AR,2022-02-11 23:59:05,-38.0023,-57.5575,62.1,77,100,25.99
124,Kavaratti,IN,2022-02-11 23:59:06,10.5669,72.642,79.9,78,28,9.08
125,Chokurdakh,RU,2022-02-11 23:57:10,70.6333,147.9167,-4.43,96,100,12.97
126,Diban,SY,2022-02-11 23:59:06,35.0365,40.5167,49.93,63,1,8.95
127,East London,ZA,2022-02-11 23:59:07,-33.0153,27.9116,72.43,86,63,4.94
128,Kahului,US,2022-02-11 23:59:07,20.8947,-156.47,78.84,74,8,13.0
129,Enumclaw,US,2022-02-11 23:55:49,47.2043,-121.9915,51.19,76,69,5.01
130,Araguacu,BR,2022-02-11 23:59:07,-12.9306,-49.8264,72.1,94,62,2.71
131,Vestmannaeyjar,IS,2022-02-11 23:59:08,63.4427,-20.2734,33.17,72,100,10.02
132,Olafsvik,IS,2022-02-11 23:52:26,64.8945,-23.7142,27.82,72,100,21.83
133,Bukama,CD,2022-02-11 23:59:08,-9.2,25.85,68.02,95,100,3.58
134,Maragogi,BR,2022-02-11 23:59:08,-9.0122,-35.2225,80.24,76,91,10.71
135,Sao Jose Da Coroa Grande,BR,2022-02-11 23:59:09,-8.8978,-35.1478,80.13,77,85,10.27
136,Marzuq,YE,2022-02-12 00:00:11,14.4,46.4667,60.26,47,14,3.27
137,Yulara,AU,2022-02-12 00:00:15,-25.2406,130.9889,81.81,26,0,13.96
138,Pinawa,CA,2022-02-12 00:00:20,50.1489,-95.8811,-16.17,94,68,8.12
139,Lahat,ID,2022-02-12 00:00:23,-3.8,103.5333,71.31,82,99,1.79
140,Hithadhoo,MV,2022-02-12 00:00:24,-0.6,73.0833,81.18,69,90,8.86
141,Bathsheba,BB,2022-02-11 23:49:44,13.2167,-59.5167,77.61,65,40,19.57
142,Limbang,MY,2022-02-12 00:00:26,4.75,115.0,75.31,94,98,3.2
143,Tuktoyaktuk,CA,2022-02-12 00:00:27,69.4541,-133.0374,-20.81,100,90,3.91
144,Klaksvik,FO,2022-02-11 23:57:26,62.2266,-6.589,40.12,96,100,27.87
145,Qui Nhon,VN,2022-02-12 00:00:30,13.7667,109.2333,73.62,85,100,6.55
146,Mildura,AU,2022-02-12 00:00:31,-34.2,142.15,74.07,51,0,8.77
147,Igarka,RU,2022-02-12 00:00:33,67.4667,86.5833,-23.3,96,62,6.06
148,Banda Aceh,ID,2022-02-12 00:00:35,5.5577,95.3222,77.32,79,94,7.49
149,Carnarvon,AU,2022-02-12 00:00:37,-24.8667,113.6333,81.46,70,4,11.43
150,Provideniya,RU,2022-02-12 00:00:37,64.3833,-173.3,-12.59,87,6,8.12
151,Orsha,BY,2022-02-12 00:00:38,54.5153,30.4053,22.3,94,100,6.38
152,Los Llanos De Aridane,ES,2022-02-12 00:00:38,28.6585,-17.9182,64.15,40,0,8.99
153,Rock Springs,US,2022-02-12 00:00:39,41.5875,-109.2029,34.05,59,0,19.57
154,Sprockhovel,DE,2022-02-12 00:00:40,51.35,7.25,33.51,81,3,3.91
155,Quelimane,MZ,2022-02-11 23:52:15,-17.8786,36.8883,76.95,94,75,3.44
156,Canton,CN,2022-02-12 00:00:41,23.1167,113.25,62.01,76,100,6.91
157,Salalah,OM,2022-02-12 00:00:42,17.0151,54.0924,67.64,74,1,3.44
158,Sao Gabriel,BR,2022-02-11 23:58:11,-30.3364,-54.32,80.38,50,83,9.66
159,Glyadyanskoye,RU,2022-02-12 00:00:42,54.9075,65.0883,15.55,94,100,13.33
160,Yarmouth,US,2022-02-12 00:00:43,41.7057,-70.2286,45.46,75,8,1.99
161,Pevek,RU,2022-02-12 00:00:43,69.7008,170.3133,-28.88,99,99,6.26
162,Vicuna,CL,2022-02-12 00:00:44,-30.0319,-70.7081,77.77,58,4,3.71
163,Les Herbiers,FR,2022-02-12 00:00:44,46.8667,-1.0167,38.19,75,99,9.04
164,Vanavara,RU,2022-02-11 23:56:11,60.34,102.2797,-15.39,97,94,1.54
165,Shimoda,JP,2022-02-12 00:00:45,34.6667,138.95,40.1,66,89,9.19
166,Nelson Bay,AU,2022-02-12 00:00:46,-32.7167,152.15,77.05,57,94,5.01
167,Leh,IN,2022-02-12 00:00:46,34.1667,77.5833,-12.32,52,5,4.12
168,Dubti,ET,2022-02-11 23:54:47,11.7361,41.0853,73.47,57,0,9.42
169,Fukue,JP,2022-02-12 00:00:47,32.6881,128.8419,51.1,57,91,14.27
170,Itacare,BR,2022-02-12 00:00:47,-14.2775,-38.9967,77.41,82,3,3.09
171,Port Macquarie,AU,2022-02-12 00:00:47,-31.4333,152.9167,69.89,94,75,6.91
172,Ocean City,US,2022-02-11 23:58:02,39.2776,-74.5746,54.21,66,0,1.99
173,Cascais,PT,2022-02-11 23:59:49,38.6979,-9.4215,59.05,72,100,15.01
174,Namibe,AO,2022-02-11 23:53:34,-15.1961,12.1522,75.97,83,92,3.69
175,Alice Springs,AU,2022-02-11 23:58:00,-23.7,133.8833,78.35,31,0,8.05
176,Bagdarin,RU,2022-02-12 00:00:48,54.4333,113.6,-24.92,96,16,3.76
177,Liverpool,GB,2022-02-11 23:56:54,53.4106,-2.9779,43.72,80,0,12.66
178,Muros,ES,2022-02-12 00:00:49,42.7762,-9.0603,53.24,95,95,1.5
179,Kulhudhuffushi,MV,2022-02-12 00:00:49,6.6221,73.07,81.48,72,87,7.58
180,Barrow,US,2022-02-12 00:00:02,71.2906,-156.7887,-26.82,100,90,7.38
181,Port Lincoln,AU,2022-02-12 00:00:50,-34.7333,135.8667,70.27,62,0,13.4
182,Toamasina,MG,2022-02-12 00:00:50,-18.1667,49.3833,74.21,87,35,8.5
183,Tocopilla,CL,2022-02-12 00:00:51,-22.092,-70.1979,70.45,68,10,7.61
184,Masunga,BW,2022-02-12 00:01:51,-20.6246,27.4488,66.88,61,9,6.82
185,Bethel,US,2022-02-11 23:59:32,41.3712,-73.414,48.02,61,66,9.57
186,Norman Wells,CA,2022-02-12 00:01:51,65.282,-126.8329,-12.28,96,37,3.13
187,Bambous Virieux,MU,2022-02-12 00:01:52,-20.3428,57.7575,75.22,94,20,4.61
188,Adrar,MR,2022-02-11 23:49:56,20.5022,-10.0711,60.73,20,51,10.4
189,Victoria,HK,2022-02-11 23:57:10,22.2855,114.1577,67.17,91,35,3.0
190,Tilichiki,RU,2022-02-12 00:01:52,60.4667,166.1,-13.95,84,6,9.4
191,Baijiantan,CN,2022-02-12 00:01:53,45.6333,85.1833,8.08,96,95,3.38
192,Pringsewu,ID,2022-02-12 00:01:53,-5.3582,104.9744,73.45,92,100,0.34
193,Talaya,RU,2022-02-12 00:01:53,61.3833,152.75,-31.2,93,90,0.36
194,Bereda,ES,2022-02-12 00:01:53,43.2686,-7.5406,48.92,100,100,0.76
195,Kathmandu,NP,2022-02-12 00:01:54,27.7167,85.3167,41.22,100,20,3.44
196,Kurumkan,RU,2022-02-12 00:01:54,54.3,110.3,-22.63,92,82,3.47
197,Jining,CN,2022-02-12 00:01:55,35.405,116.5814,36.41,71,44,4.79
198,Faanui,PF,2022-02-12 00:01:55,-16.4833,-151.75,82.02,70,59,13.91
199,Usinsk,RU,2022-02-12 00:01:55,65.9939,57.5281,9.41,86,100,14.0
200,Buluang,PH,2022-02-12 00:01:55,13.3068,123.3425,74.86,96,99,4.99
201,Gobabis,NA,2022-02-12 00:01:56,-22.45,18.9667,68.95,67,54,8.28
202,Sao Filipe,CV,2022-02-12 00:00:52,14.8961,-24.4956,79.47,46,61,14.32
203,Coihaique,CL,2022-02-12 00:01:56,-45.5752,-72.0662,59.61,73,35,5.73
204,Zhangye,CN,2022-02-12 00:01:57,38.9342,100.4517,22.96,47,52,7.09
205,Poronaysk,RU,2022-02-12 00:01:57,49.2167,143.1167,21.04,95,100,7.02
206,Gorontalo,ID,2022-02-12 00:01:57,0.5412,123.0595,77.94,89,97,1.63
207,Sinnamary,GF,2022-02-12 00:01:58,5.3833,-52.95,75.92,89,36,10.31
208,Sayyan,YE,2022-02-12 00:01:58,15.1718,44.3244,52.92,51,4,1.9
209,San Patricio,US,2022-02-12 00:01:58,28.017,-97.5169,73.49,71,12,14.07
210,Alcudia,ES,2022-02-12 00:01:58,39.8532,3.1214,51.37,80,71,9.51
211,Homer,US,2022-02-12 00:01:59,59.6425,-151.5483,37.04,75,85,3.0
212,Dikson,RU,2022-02-12 00:00:56,73.5069,80.5464,2.55,82,100,29.28
213,Nanortalik,GL,2022-02-12 00:01:59,60.1432,-45.2371,29.55,76,100,9.95
214,Villazon,BO,2022-02-12 00:02:00,-22.0866,-65.5942,53.83,65,66,16.93
215,Talcahuano,CL,2022-02-12 00:02:00,-36.7167,-73.1167,61.29,67,0,9.15
216,Saldanha,ZA,2022-02-12 00:02:00,-33.0117,17.9442,64.54,93,31,17.43
217,Sao Joao Da Barra,BR,2022-02-12 00:02:01,-21.6403,-41.0511,73.49,92,100,7.74
218,Glazov,RU,2022-02-12 00:02:01,58.1394,52.6584,12.74,98,100,2.77
219,Seoul,KR,2022-02-11 23:50:56,37.5683,126.9778,31.44,93,75,2.3
220,Wilmington,US,2022-02-12 00:01:57,34.2257,-77.9447,57.11,51,0,6.91
221,Kushiro,JP,2022-02-11 23:57:03,42.975,144.3747,22.15,73,75,2.3
222,Tezu,IN,2022-02-12 00:02:02,27.9167,96.1667,52.66,77,93,2.06
223,Sovetskiy,RU,2022-02-12 00:02:02,61.3614,63.5842,2.57,87,100,11.21
224,Ewa Beach,US,2022-02-12 00:02:03,21.3156,-158.0072,80.44,59,0,15.01
225,Lucea,JM,2022-02-12 00:02:03,18.451,-78.1736,73.85,80,11,5.84
226,Celestun,MX,2022-02-12 00:02:03,20.8667,-90.4,73.92,76,64,14.25
227,Alofi,NU,2022-02-12 00:02:04,-19.0595,-169.9187,81.16,74,3,18.61
228,Katsuura,JP,2022-02-12 00:02:04,35.1333,140.3,46.11,61,43,12.08
229,Bonthe,SL,2022-02-12 00:02:04,7.5264,-12.505,76.75,94,7,4.56
230,Presidencia Roque Saenz Pena,AR,2022-02-12 00:02:05,-26.7852,-60.4388,81.52,36,36,17.98
231,Xichang,CN,2022-02-12 00:03:05,27.8964,102.2634,37.78,90,6,0.74
232,Chimbote,PE,2022-02-12 00:03:05,-9.0853,-78.5783,70.92,82,87,7.83
233,Basco,PH,2022-02-12 00:03:06,20.4487,121.9702,76.15,77,99,19.73
234,Nkhotakota,MW,2022-02-12 00:03:06,-12.9274,34.2961,68.41,85,100,4.99
235,Cabo San Lucas,MX,2022-02-12 00:03:06,22.8909,-109.9124,74.61,62,0,8.05
236,Bonavista,CA,2022-02-12 00:03:07,48.6499,-53.1147,37.11,78,53,17.81
237,Grand-Santi,GF,2022-02-12 00:03:07,4.25,-54.3833,72.27,99,57,3.06
238,Talara,PE,2022-02-11 23:53:29,-4.5772,-81.2719,72.77,81,16,12.35
239,Ahuimanu,US,2022-02-12 00:03:07,21.4447,-157.8378,80.2,61,40,13.8
240,Nouakchott,MR,2022-02-11 23:58:28,18.0858,-15.9785,67.93,27,72,12.21
241,Labuhan,ID,2022-02-12 00:03:08,-6.8844,112.2051,76.69,88,100,5.01
242,Krutinka,RU,2022-02-12 00:03:08,56.0055,71.5113,-10.43,96,7,12.12
243,Bodden Town,KY,2022-02-12 00:03:09,19.2833,-81.25,79.93,78,10,3.0
244,Manyana,BW,2022-02-12 00:03:09,-23.4,21.7167,70.02,65,31,6.17
245,Rosario,AR,2022-02-11 23:58:31,-32.9468,-60.6393,61.95,79,100,24.16
246,Praia Da Vitoria,PT,2022-02-12 00:03:09,38.7333,-27.0667,58.75,89,89,8.37
247,Bandundu,CD,2022-02-12 00:03:10,-3.3167,17.3667,74.44,87,81,2.68
248,Daru,PG,2022-02-12 00:03:10,-9.0763,143.2092,83.7,65,100,6.53
249,Vanderhoof,CA,2022-02-12 00:00:44,54.0166,-124.0198,33.73,83,70,1.97
250,Kyshtovka,RU,2022-02-11 23:58:42,56.555,76.6271,-16.91,100,77,5.66
251,Anadyr,RU,2022-02-12 00:03:11,64.75,177.4833,-32.01,66,64,7.83
252,Kalmunai,LK,2022-02-11 23:59:47,7.4167,81.8167,76.42,88,100,2.66
253,Governador Valadares,BR,2022-02-12 00:03:11,-18.8511,-41.9494,71.82,95,65,3.78
254,Katherine,AU,2022-02-12 00:03:11,-14.4667,132.2667,84.52,79,40,10.36
255,Bull Savanna,JM,2022-02-12 00:00:42,17.8868,-77.5902,74.28,82,42,9.75
256,Udachnyy,RU,2022-02-12 00:03:12,66.4167,112.4,-15.09,100,98,3.53
257,Kagalnitskaya,RU,2022-02-12 00:03:12,46.8806,40.1466,41.67,87,71,16.11
258,Valparaiso,CL,2022-02-12 00:03:12,-33.0393,-71.6273,63.03,65,61,6.93
259,Kununurra,AU,2022-02-12 00:03:13,-15.7667,128.7333,78.78,89,18,8.05
260,Kaitangata,NZ,2022-02-12 00:03:13,-46.2817,169.8464,59.94,59,86,6.33
261,Santa Vitoria,BR,2022-02-12 00:03:13,-18.8386,-50.1214,71.47,91,31,0.78
262,Ust-Ishim,RU,2022-02-12 00:03:14,57.6935,71.1665,-7.92,94,6,8.21
263,Saint-Joseph,RE,2022-02-12 00:02:09,-21.3667,55.6167,75.58,73,28,6.31
264,Hambantota,LK,2022-02-12 00:03:14,6.1241,81.1185,76.42,88,99,11.63
265,Saint-Augustin,CA,2022-02-12 00:03:14,51.226,-58.6502,9.61,84,25,8.1
266,Severo-Kurilsk,RU,2022-02-12 00:03:15,50.6789,156.125,26.89,82,100,9.28
267,Inhambane,MZ,2022-02-11 23:53:36,-23.865,35.3833,73.99,79,5,8.25
268,Ayan,RU,2022-02-12 00:03:15,56.45,138.1667,7.23,78,100,4.72
269,Reconquista,AR,2022-02-12 00:00:17,-29.15,-59.65,77.11,40,83,21.03
270,Dawson Creek,CA,2022-02-12 00:03:16,55.7666,-120.2362,34.65,51,80,2.55
271,Manjacaze,MZ,2022-02-12 00:03:16,-24.7117,33.8828,67.73,95,2,4.32
272,Tarnok,HU,2022-02-12 00:03:16,47.3733,18.8458,41.32,67,99,15.14
273,Egvekinot,RU,2022-02-12 00:03:17,66.3167,-179.1667,-17.72,87,9,7.29
274,Port Moresby,PG,2022-02-12 00:03:17,-9.4431,147.1797,82.56,62,98,3.49
275,Noumea,NC,2022-02-12 00:03:17,-22.2763,166.4572,87.78,99,77,7.16
276,Rahimatpur,IN,2022-02-12 00:03:18,17.6,74.2,65.12,48,42,5.66
277,Burgos,ES,2022-02-12 00:04:18,42.3394,-3.7079,32.41,100,43,0.0
278,Broome,US,2022-02-12 00:04:18,42.2506,-75.833,49.19,54,75,15.99
279,Grand Gaube,MU,2022-02-12 00:04:19,-20.0064,57.6608,75.38,81,64,3.0
280,Mpanda,TZ,2022-02-12 00:04:19,-6.3655,31.0409,64.78,96,100,2.86
281,Kysyl-Syr,RU,2022-02-12 00:04:19,63.8986,122.7617,-30.78,100,95,1.54
282,Lazaro Cardenas,MX,2022-02-12 00:04:20,17.9583,-102.2,80.42,48,46,9.04
283,Ugoofaaru,MV,2022-02-12 00:04:20,5.6667,73.0,81.61,72,98,6.11
284,Gornopravdinsk,RU,2022-02-12 00:04:20,60.05,69.9,-0.9,87,11,10.11
285,Bubaque,GW,2022-02-12 00:04:21,11.2833,-15.8333,79.05,70,33,6.62
286,Hami,CN,2022-02-12 00:04:21,42.8,93.45,29.14,55,100,4.79
287,Cap Malheureux,MU,2022-02-12 00:04:21,-19.9842,57.6142,75.47,81,65,3.0
288,Byron Bay,AU,2022-02-12 00:04:21,-28.65,153.6167,75.15,77,85,16.64
289,Havoysund,NO,2022-02-12 00:04:22,70.9963,24.6622,25.68,60,98,10.42
290,Loandjili,CG,2022-02-12 00:04:22,-4.7561,11.8578,77.41,87,40,4.54
291,Nikolskoye,RU,2022-02-12 00:04:22,59.7035,30.7861,24.69,93,29,8.41
292,Salamiyah,SY,2022-02-12 00:04:23,35.0113,37.0532,44.44,83,0,5.7
293,Jiexiu,CN,2022-02-12 00:04:23,37.0244,111.9125,34.18,52,100,3.2
294,Souillac,MU,2022-02-12 00:01:52,-20.5167,57.5167,75.36,94,20,4.61
295,Talnakh,RU,2022-02-12 00:04:24,69.4865,88.3972,-11.72,87,91,9.91
296,Bom Jardim,BR,2022-02-12 00:04:24,-7.7958,-35.5872,74.84,84,53,7.54
297,Ous,RU,2022-02-12 00:04:24,60.9058,61.5186,6.35,95,100,8.86
298,Sorland,NO,2022-02-12 00:04:24,67.667,12.6934,31.71,76,100,28.74
299,Dunedin,NZ,2022-02-12 00:04:25,-45.8742,170.5036,60.8,59,100,5.01
300,Crateus,BR,2022-02-12 00:00:08,-5.1783,-40.6775,79.77,56,96,3.85
301,Lavrentiya,RU,2022-02-12 00:04:25,65.5833,-171.0,-21.71,91,23,7.7
302,Cagliari,IT,2022-02-12 00:04:26,39.245,9.0912,48.9,88,0,18.01
303,Terrace,CA,2022-02-11 23:59:53,54.5163,-128.6035,43.43,80,75,0.0
304,Boende,CD,2022-02-12 00:04:26,-0.2167,20.8667,79.02,54,93,2.66
305,Emba,KZ,2022-02-12 00:04:27,48.8264,58.1442,25.02,97,100,8.01
306,Baker City,US,2022-02-12 00:04:27,44.7749,-117.8344,45.82,43,0,3.44
307,Berdigestyakh,RU,2022-02-12 00:04:27,62.0989,126.6992,-34.37,100,68,2.57
308,Komsomolskiy,UZ,2022-02-12 00:04:27,40.4272,71.7189,40.42,65,40,6.91
309,Bulungu,CD,2022-02-12 00:04:28,-4.55,18.6,73.13,84,68,2.15
310,Belle Fourche,US,2022-02-12 00:04:28,44.6714,-103.8522,29.05,56,100,13.44
311,Ancud,CL,2022-02-12 00:02:07,-41.8697,-73.8203,59.43,68,4,4.52
312,Hasaki,JP,2022-02-12 00:04:29,35.7333,140.8333,37.8,52,24,12.97
313,Nago,JP,2022-02-12 00:04:29,26.5881,127.9761,69.87,71,69,10.07
314,San Juan,AR,2022-02-12 00:01:11,-31.5375,-68.5364,67.12,62,91,18.21
315,Kankakee,US,2022-02-12 00:04:29,41.15,-87.8667,36.91,79,75,19.57
316,Charters Towers,AU,2022-02-12 00:02:24,-20.1,146.2667,83.26,51,0,10.87
317,Ensenada,MX,2022-02-12 00:04:30,31.8667,-116.6167,69.94,59,0,5.12
318,Nalut,LY,2022-02-12 00:04:30,30.3333,10.85,48.2,48,37,8.75
319,Richards Bay,ZA,2022-02-12 00:04:30,-28.783,32.0377,71.55,91,5,5.08
320,Pacific Grove,US,2022-02-12 00:04:31,36.6177,-121.9166,81.57,45,0,4.61
321,Pemangkat,ID,2022-02-12 00:04:31,1.1667,108.9667,75.92,88,100,4.7
322,Aykhal,RU,2022-02-12 00:05:31,66.0,111.5,-11.13,100,95,5.39
323,Sirsi,IN,2022-02-12 00:05:32,14.6167,74.85,64.51,57,4,6.64
324,Patzite,GT,2022-02-12 00:05:32,14.9667,-91.2167,61.65,91,81,2.82
325,Ketchikan,US,2022-02-12 00:05:32,55.3422,-131.6461,40.98,70,100,9.22
326,Naze,JP,2022-02-12 00:04:55,28.3667,129.4833,58.77,66,100,12.28
327,Bengkulu,ID,2022-02-12 00:05:33,-3.8004,102.2655,74.34,85,100,4.47
328,Goundi,TD,2022-02-12 00:05:33,9.3627,17.366,74.98,15,0,4.85
329,North Platte,US,2022-02-12 00:05:34,41.1239,-100.7654,30.09,54,20,21.85
330,Mandalgovi,MN,2022-02-12 00:05:34,45.7625,106.2708,-7.49,76,51,3.42
331,Midland,US,2022-02-12 00:05:34,31.9974,-102.0779,66.87,20,0,21.85
332,Sambava,MG,2022-02-12 00:05:34,-14.2667,50.1667,75.34,90,33,6.85
333,Turbat,PK,2022-02-12 00:05:35,26.0023,63.044,61.99,54,0,3.62
334,Katobu,ID,2022-02-12 00:05:35,-4.9408,122.5276,77.67,90,100,3.51
335,Zeya,RU,2022-02-12 00:05:35,53.75,127.2667,-4.94,82,98,4.36
336,Kaeo,NZ,2022-02-12 00:05:36,-35.1,173.7833,77.32,98,96,14.45
337,Hofn,IS,2022-02-12 00:01:11,64.2539,-15.2082,27.43,78,100,21.34
338,Deputatskiy,RU,2022-02-12 00:05:36,69.3,139.9,-17.16,96,98,5.73
339,Phaltan,IN,2022-02-12 00:05:36,17.9833,74.4333,65.61,45,50,4.36
340,Eldorado,BR,2022-02-12 00:05:37,-23.7869,-54.2836,77.09,60,0,2.84
341,Shipitsyno,RU,2022-02-12 00:05:37,61.2806,46.5208,12.87,98,95,4.09
342,College,US,2022-02-12 00:05:38,64.8569,-147.8028,8.8,73,75,6.91
343,Volchikha,RU,2022-02-12 00:05:38,52.0333,80.3833,-12.05,99,47,6.26
344,Sur,OM,2022-02-12 00:05:38,22.5667,59.5289,66.88,58,0,7.45
345,Nadvoitsy,RU,2022-02-12 00:05:39,63.8667,34.3167,13.96,92,47,9.17
346,Tasiilaq,GL,2022-02-12 00:02:15,65.6145,-37.6368,14.16,68,100,3.91
347,Lyskovo,RU,2022-02-12 00:05:39,56.0328,45.0422,27.79,93,99,8.9
348,Goreloye,RU,2022-02-12 00:05:39,52.937,41.5043,19.24,94,61,6.85
349,Teguise,ES,2022-02-12 00:05:40,29.0605,-13.564,61.02,52,0,4.61
350,Palmeirais,BR,2022-02-12 00:05:40,-5.9778,-43.0633,73.89,94,99,1.03
351,Khatanga,RU,2022-02-12 00:05:40,71.9667,102.5,0.01,82,82,14.38
352,Boa Esperanca,BR,2022-02-12 00:05:41,-21.09,-45.5658,66.06,95,96,4.14
353,Airai,TL,2022-02-12 00:03:32,-8.9266,125.4092,66.24,85,99,1.9
354,Camacha,PT,2022-02-12 00:02:29,33.0833,-16.3333,60.22,72,40,9.22
355,Nhulunbuy,AU,2022-02-12 00:01:21,-12.2333,136.7667,86.61,70,71,13.8
356,Kavieng,PG,2022-02-12 00:05:41,-2.5744,150.7967,83.55,68,97,2.98
357,Sobolevo,RU,2022-02-12 00:05:41,54.4299,31.8996,23.49,97,100,6.08
358,Hun,LY,2022-02-12 00:05:42,29.1268,15.9477,50.58,48,1,7.85
359,Verkh-Chebula,RU,2022-02-12 00:05:42,56.0308,87.6218,-24.34,100,24,2.68
360,Porto Empedocle,IT,2022-02-12 00:05:43,37.2934,13.5264,49.89,65,100,3.58
361,Tuatapere,NZ,2022-02-12 00:05:43,-46.1333,167.6833,58.82,63,64,14.41
362,Veraval,IN,2022-02-12 00:05:43,20.9,70.3667,67.89,35,3,12.48
363,Barentu,ER,2022-02-12 00:05:44,15.1139,37.5928,65.19,73,0,4.36
364,Duluth,US,2022-02-12 00:05:44,46.7833,-92.1066,9.66,65,100,21.85
365,Teya,RU,2022-02-12 00:05:44,60.3778,92.6267,-20.67,100,29,1.77
366,Ajaccio,FR,2022-02-12 00:05:45,42.0,8.9167,44.65,87,40,4.61
367,Eskisehir,TR,2022-02-12 00:05:45,39.7767,30.5206,28.31,93,0,5.75
368,Ahipara,NZ,2022-02-12 00:06:45,-35.1667,173.1667,79.41,80,97,19.3
369,Christchurch,NZ,2022-02-12 00:06:45,-43.5333,172.6333,66.94,93,100,6.91
370,Moussoro,TD,2022-02-12 00:06:46,13.6408,16.4901,65.07,17,4,12.93
371,Fairbanks,US,2022-02-12 00:06:46,64.8378,-147.7164,9.1,74,75,6.91
372,Yeppoon,AU,2022-02-12 00:06:47,-23.1333,150.7333,82.18,61,24,10.25
373,Vallenar,CL,2022-02-12 00:06:47,-28.5708,-70.7581,72.12,49,0,4.68
374,Wenzhou,CN,2022-02-12 00:06:47,27.9994,120.6668,51.06,87,99,2.15
375,Suntar,RU,2022-02-12 00:06:48,62.1444,117.6319,-18.78,100,90,3.6
376,Marovoay,MG,2022-02-12 00:06:48,-16.1,46.6333,77.14,91,15,1.48
377,Manakara,MG,2022-02-12 00:06:48,-22.1333,48.0167,74.19,89,48,0.87
378,Khorixas,NA,2022-02-12 00:06:49,-20.3667,14.9667,72.41,77,97,2.48
379,Razdolinsk,RU,2022-02-12 00:06:49,58.4211,94.6658,-17.73,98,7,4.56
380,Krasnoturansk,RU,2022-02-12 00:06:49,54.3186,91.5639,-30.21,100,34,1.81
381,Sorong,ID,2022-02-12 00:06:50,-0.8833,131.25,79.84,79,100,4.45
382,Viedma,AR,2022-02-12 00:06:50,-40.8135,-62.9967,63.86,24,0,6.22
383,Quatre Cocos,MU,2022-02-12 00:06:50,-20.2078,57.7625,75.09,82,48,2.46
384,Port Hardy,CA,2022-02-12 00:06:18,50.6996,-127.4199,47.75,79,93,1.72
385,Luganville,VU,2022-02-12 00:06:51,-15.5333,167.1667,85.71,70,98,9.57
386,Shubarshi,KZ,2022-02-12 00:06:51,48.5872,57.1869,27.61,95,100,9.91
387,Port Blair,IN,2022-02-12 00:06:51,11.6667,92.75,75.24,94,40,1.14
388,Mount Isa,AU,2022-02-12 00:06:52,-20.7333,139.5,91.17,31,14,8.05
389,Kralendijk,BQ,2022-02-12 00:06:52,12.15,-68.2667,78.78,73,20,17.27
390,Seddon,AU,2022-02-12 00:06:52,-37.8068,144.8916,76.37,58,20,5.75
391,Biak,ID,2022-02-12 00:04:08,-0.9131,122.8766,75.97,88,100,3.02
392,Opuwo,NA,2022-02-12 00:06:53,-18.0607,13.84,68.07,90,99,5.55
393,Saint George,US,2022-02-12 00:06:06,37.1041,-113.5841,72.43,15,0,5.75
394,Caravelas,BR,2022-02-12 00:06:53,-17.7125,-39.2481,75.9,87,47,4.9
395,Havre-Saint-Pierre,CA,2022-02-12 00:06:54,50.2334,-63.5986,12.25,87,37,3.27
396,Ponta Delgada,PT,2022-02-12 00:06:54,37.7333,-25.6667,60.49,63,75,0.0
397,Castelldefels,ES,2022-02-12 00:06:54,41.2779,1.9703,55.69,85,20,3.44
398,Keningau,MY,2022-02-12 00:06:55,5.3378,116.1602,73.85,96,97,1.3
399,Vata De Jos,RO,2022-02-12 00:06:55,46.1833,22.6,41.65,95,95,3.98
400,Upernavik,GL,2022-02-12 00:06:55,72.7868,-56.1549,-12.08,77,100,17.74
401,Longyearbyen,SJ,2022-02-12 00:02:24,78.2186,15.6401,19.24,86,75,3.44
402,Tambun,ID,2022-02-12 00:06:56,-6.2641,107.0712,80.49,94,40,3.44
403,Sete Lagoas,BR,2022-02-12 00:06:56,-19.4658,-44.2467,68.88,98,100,3.27
404,Dorado,PR,2022-02-12 00:06:56,18.4588,-66.2677,78.15,81,17,11.65
405,West Wendover,US,2022-02-12 00:03:11,40.7391,-114.0733,56.1,19,25,7.45
406,Whitianga,NZ,2022-02-12 00:04:42,-36.8333,175.7,80.02,95,97,10.33
407,Mezhdurechensk,RU,2022-02-12 00:06:57,53.6942,88.0603,-12.21,98,7,3.06
408,Saint-Francois,FR,2022-02-12 00:06:57,46.4154,3.9054,30.42,97,0,0.0
409,Codrington,AU,2022-02-12 00:05:56,-38.2667,141.9667,70.88,53,1,11.92
410,Tual,ID,2022-02-12 00:06:58,-5.6667,132.75,82.26,69,87,1.86
411,Cayenne,GF,2022-02-12 00:06:58,4.9333,-52.3333,79.09,88,100,5.99
412,Phan Thiet,VN,2022-02-12 00:06:58,10.9333,108.1,75.58,69,100,5.55
413,Guerrero Negro,MX,2022-02-12 00:06:59,27.9769,-114.0611,73.63,24,0,10.11
414,Manta,EC,2022-02-12 00:03:46,-0.95,-80.7333,80.38,69,75,4.61
415,Misratah,LY,2022-02-12 00:07:59,32.3754,15.0925,57.76,55,100,6.2
416,Gat,IL,2022-02-12 00:08:00,31.61,34.7642,48.4,100,4,3.74
417,Predivinsk,RU,2022-02-12 00:08:00,57.0669,93.4378,-16.42,99,8,3.09
418,Oussouye,SN,2022-02-12 00:08:00,12.485,-16.5469,77.5,22,1,4.54
419,Itaituba,BR,2022-02-12 00:08:01,-4.2761,-55.9836,74.19,98,100,0.78
420,Ouargaye,BF,2022-02-12 00:08:01,11.5033,0.0572,78.53,11,51,8.55
421,Dubbo,AU,2022-02-12 00:08:01,-32.25,148.6167,75.33,46,25,14.97
422,Beringovskiy,RU,2022-02-12 00:08:02,63.05,179.3167,-22.61,93,32,10.49
423,Mwinilunga,ZM,2022-02-12 00:08:02,-11.7358,24.4293,57.04,93,89,0.78
424,Pyapon,MM,2022-02-12 00:08:02,16.2833,95.6833,65.55,79,2,6.67
425,Luau,AO,2022-02-12 00:08:03,-10.7073,22.2247,63.93,93,99,2.73
426,Kuito,AO,2022-02-12 00:08:03,-12.3833,16.9333,57.6,89,57,5.35
427,Tucuma,BR,2022-02-12 00:08:03,-0.1833,-50.05,75.47,93,99,5.82
428,Mangai,CD,2022-02-12 00:08:04,-4.05,19.5333,72.34,91,90,1.92
429,Rio Hondo,GT,2022-02-12 00:08:04,15.0667,-89.5833,79.86,47,0,16.11
430,Nchelenge,ZM,2022-02-12 00:08:04,-9.3451,28.734,68.5,84,100,5.32
431,Gunjur,GM,2022-02-12 00:08:05,13.2019,-16.7339,78.37,30,2,14.34
432,Curup,ID,2022-02-12 00:08:05,-3.4667,102.5333,67.53,85,100,1.12
433,Bacolod,PH,2022-02-12 00:08:05,10.6667,122.95,79.7,83,91,10.69
434,Baracoa,CU,2022-02-12 00:08:06,20.3467,-74.4958,74.84,85,23,3.83
435,Lorengau,PG,2022-02-12 00:08:06,-2.0226,147.2712,83.48,75,100,5.1
436,Cheney,US,2022-02-12 00:04:01,47.4874,-117.5758,50.34,31,20,9.22
437,Dhidhdhoo,MV,2022-02-12 00:08:06,6.8833,73.1,81.52,71,96,8.01
438,Karratha,AU,2022-02-12 00:08:07,-20.7377,116.8463,87.21,62,26,6.4
439,Chumikan,RU,2022-02-12 00:08:07,54.7183,135.315,7.72,94,100,4.68
440,Syasstroy,RU,2022-02-12 00:08:07,60.1367,32.5691,16.92,97,78,8.37
441,Pangody,RU,2022-02-12 00:08:08,65.85,74.4859,-4.56,80,41,14.52
442,Tiarei,PF,2022-02-12 00:08:08,-17.5333,-149.3333,86.02,73,57,13.94
443,Kenora,CA,2022-02-12 00:08:08,49.8167,-94.4337,-5.82,84,43,9.6
444,Pisco,PE,2022-02-12 00:04:46,-13.7,-76.2167,73.02,68,0,19.57
445,Tessalit,ML,2022-02-12 00:08:09,20.1986,1.0114,64.94,16,2,4.94
446,Mukhen,RU,2022-02-12 00:08:09,48.1,136.1,13.77,93,100,2.33
447,Statesville,US,2022-02-12 00:08:09,35.7826,-80.8873,59.27,35,0,5.75
448,Boguchany,RU,2022-02-12 00:08:10,58.3814,97.4531,-24.12,100,65,2.3
449,Najran,SA,2022-02-12 00:08:10,17.4924,44.1277,62.08,25,0,2.19
450,Korla,CN,2022-02-12 00:08:10,41.7597,86.1469,25.92,48,6,3.67
451,Tabuk,PH,2022-02-12 00:08:11,17.4189,121.4443,72.59,81,75,3.02
452,Cody,US,2022-02-12 00:05:02,44.5263,-109.0565,27.28,63,100,9.22
453,Itacarambi,BR,2022-02-12 00:08:11,-15.1022,-44.0919,73.99,78,81,0.38
454,Itamaraca,BR,2022-02-12 00:08:12,-7.7478,-34.8256,83.08,77,65,9.4
455,Falun,SE,2022-02-12 00:08:12,60.6036,15.626,30.22,57,51,8.61
456,Northam,GB,2022-02-12 00:08:12,51.0333,-4.2167,45.01,82,97,14.05
457,Corner Brook,CA,2022-02-12 00:08:13,48.9667,-57.9484,25.21,94,57,5.14
458,Manuk Mangkaw,PH,2022-02-12 00:09:13,4.8,119.85,80.53,77,67,1.59
459,Kautokeino,NO,2022-02-12 00:09:13,69.0125,23.0412,-7.8,100,56,2.77
460,Devils Lake,US,2022-02-12 00:09:14,48.1128,-98.8651,-7.06,66,0,16.11
461,Oriximina,BR,2022-02-12 00:09:14,-1.7656,-55.8661,75.18,94,90,2.42
462,Saint-Pierre,RE,2022-02-12 00:09:14,-21.3393,55.4781,76.68,69,100,5.75
463,Barranca,PE,2022-02-12 00:09:15,-10.75,-77.7667,71.37,78,42,8.93
464,Micheweni,TZ,2022-02-12 00:09:15,-4.9667,39.8333,79.45,78,96,8.95
465,Kupang,ID,2022-02-12 00:09:15,-10.1667,123.5833,80.04,83,100,3.15
466,Nantucket,US,2022-02-12 00:09:16,41.2835,-70.0995,45.09,75,0,5.75
467,Domoni,KM,2022-02-12 00:09:16,-12.2569,44.5319,77.56,86,100,7.56
468,Ust-Kuyga,RU,2022-02-12 00:09:16,70.0167,135.6,-21.87,99,97,8.03
469,Poddorye,RU,2022-02-12 00:09:17,57.4695,31.1156,23.09,95,95,7.45
470,Sakakah,SA,2022-02-12 00:09:17,29.9697,40.2064,46.04,54,26,7.99
471,Muyezerskiy,RU,2022-02-12 00:09:17,63.9333,31.65,13.8,95,71,10.47
472,Bandarbeyla,SO,2022-02-12 00:09:18,9.4942,50.8122,74.68,57,60,13.11
473,Bahia Blanca,AR,2022-02-12 00:09:18,-38.7196,-62.2724,61.2,47,51,9.86
474,Vardo,NO,2022-02-12 00:09:19,70.3705,31.1107,26.8,77,98,31.81
475,Poum,NC,2022-02-12 00:09:19,-20.2333,164.0167,80.87,79,100,7.96
476,Tacoronte,ES,2022-02-12 00:09:19,28.4769,-16.4102,62.15,46,1,8.05
477,Bilma,NE,2022-02-12 00:09:20,18.6853,12.9164,61.34,24,0,7.02
478,Ixtapa,MX,2022-02-12 00:05:06,20.7,-105.2,76.23,61,20,10.36
479,Jacksonville,US,2022-02-12 00:05:30,30.3322,-81.6556,63.25,64,75,5.75
480,Jati,PK,2022-02-12 00:09:20,24.3539,68.2671,64.42,51,1,6.4
481,La Cumbre,AR,2022-02-12 00:09:21,-30.982,-64.4914,54.5,95,100,14.18
482,Matagami,CA,2022-02-12 00:09:21,49.7502,-77.6328,8.71,85,100,13.8
483,Buenaventura,CO,2022-02-12 00:09:21,3.8801,-77.0312,74.86,95,88,2.53
484,Tura,IN,2022-02-12 00:09:22,25.5198,90.2201,52.3,71,0,2.62
485,Stepnyak,KZ,2022-02-12 00:09:22,52.8339,70.7803,-3.44,91,97,11.27
486,Mehamn,NO,2022-02-12 00:09:22,71.0357,27.8492,28.35,63,99,17.13
487,Zhigansk,RU,2022-02-12 00:05:01,66.7697,123.3711,-33.34,100,97,4.56
488,Sept-Iles,CA,2022-02-12 00:09:23,50.2001,-66.3821,12.92,89,78,5.75
489,Goderich,CA,2022-02-12 00:09:23,43.7501,-81.7165,35.91,98,100,15.97
490,Petropavlovsk-Kamchatskiy,RU,2022-02-12 00:09:23,53.0452,158.6483,3.79,66,0,8.95
491,Cabot,US,2022-02-12 00:09:24,34.9745,-92.0165,64.26,44,100,0.0
492,Dumra,IN,2022-02-12 00:09:24,26.5667,85.5167,51.35,68,0,5.46
493,Ivanovka,KG,2022-02-12 00:09:24,42.8878,75.085,32.43,66,100,2.17
494,Vila Franca Do Campo,PT,2022-02-12 00:09:25,37.7167,-25.4333,60.19,75,70,2.19
495,Shenjiamen,CN,2022-02-12 00:09:25,29.9576,122.298,47.34,89,100,10.92
496,Carauari,BR,2022-02-12 00:09:25,-4.8828,-66.8958,74.61,95,94,2.77
497,Naples,IT,2022-02-12 00:04:32,40.8333,14.25,51.13,91,0,1.99
498,Athabasca,CA,2022-02-12 00:09:26,54.7169,-113.2854,17.76,79,100,4.97
499,Paragominas,BR,2022-02-12 00:09:26,-2.9667,-47.4833,71.73,98,95,3.78
500,Samarai,PG,2022-02-12 00:09:26,-10.6167,150.6667,82.96,58,72,12.3
501,Gambela,ET,2022-02-12 00:09:27,8.25,34.5833,85.42,30,93,1.1
502,Villa Maria,AR,2022-02-12 00:09:27,-32.4075,-63.2402,60.82,94,98,13.27
503,Filingue,NE,2022-02-12 00:09:27,14.3521,3.3168,70.03,12,0,9.35
504,Maniitsoq,GL,2022-02-12 00:10:28,65.4167,-52.9,28.04,96,100,16.24
505,Ereymentau,KZ,2022-02-12 00:10:28,51.6199,73.1033,-0.42,89,80,9.89
506,Gashua,NG,2022-02-12 00:10:28,12.871,11.0482,61.79,20,2,9.84
507,Pilar Do Sul,BR,2022-02-12 00:10:29,-23.8131,-47.7164,64.54,94,58,9.17
508,Ismailia,EG,2022-02-12 00:10:29,30.6043,32.2723,52.48,71,0,5.73
509,Scarborough,GB,2022-02-12 00:10:02,54.2797,-0.4044,39.83,80,96,11.01
510,Nha Trang,VN,2022-02-12 00:10:29,12.25,109.1833,77.0,84,100,5.84
511,Blackwater,AU,2022-02-12 00:10:30,-23.5833,148.8833,82.78,45,1,7.25
512,Bud,US,2022-02-12 00:10:30,39.447,-86.1758,40.42,93,100,10.0
513,Itarema,BR,2022-02-12 00:10:30,-2.9248,-39.9167,78.6,79,81,10.04
514,Nanakuli,US,2022-02-12 00:10:31,21.3906,-158.1547,80.71,61,0,6.91
515,Boffa,GN,2022-02-12 00:10:31,10.1667,-14.0333,72.54,78,70,3.74
516,Sasovo,RU,2022-02-12 00:10:31,54.3537,41.9199,18.39,96,53,8.01
517,San Cristobal,VE,2022-02-12 00:10:32,7.7669,-72.225,66.61,86,74,1.16
518,Lienz,AT,2022-02-12 00:10:32,46.8289,12.769,24.03,89,25,6.6
519,Mackay,AU,2022-02-12 00:10:32,-21.15,149.2,85.68,66,68,11.14
520,Markova,UA,2022-02-12 00:10:33,48.6758,24.4138,31.89,87,100,9.6
521,Rovaniemi,FI,2022-02-12 00:10:33,66.5,25.7167,8.01,85,0,3.44
522,Hobyo,SO,2022-02-12 00:10:33,5.3505,48.5268,75.33,67,61,14.83
523,Sao Pedro Do Sul,BR,2022-02-12 00:10:34,-29.6206,-54.1789,79.36,50,90,6.29
524,Natal,BR,2022-02-12 00:10:34,-5.795,-35.2094,83.05,83,40,8.05
525,Lerwick,GB,2022-02-12 00:10:34,60.1545,-1.1494,42.8,77,100,23.35
526,Palencia,ES,2022-02-12 00:10:35,42.4167,-4.5,43.79,89,87,3.27
527,Keflavik,IS,2022-02-12 00:10:35,64.0049,-22.5624,28.83,80,75,14.97
528,Cap-Aux-Meules,CA,2022-02-12 00:10:35,47.3821,-61.8597,27.91,93,24,6.67
529,Oksfjord,NO,2022-02-12 00:10:36,70.2396,22.3479,25.72,83,98,5.48
530,Pokhara,NP,2022-02-12 00:09:21,28.2333,83.9833,47.48,37,0,5.84
531,Dakar,SN,2022-02-12 00:06:53,14.6937,-17.4441,81.48,50,26,15.48
532,Aripuana,BR,2022-02-12 00:10:36,-9.1667,-60.6333,74.89,93,100,1.95
533,Basoko,CD,2022-02-12 00:10:37,1.2391,23.616,74.97,63,96,2.21
534,Kholmogory,RU,2022-02-12 00:10:37,64.2229,41.656,24.91,96,97,5.3
535,Wajima,JP,2022-02-12 00:10:37,37.4,136.9,41.77,64,100,5.44
536,Zambezi,ZM,2022-02-12 00:10:37,-13.5432,23.1047,62.01,97,99,3.33
537,Lusambo,CD,2022-02-12 00:09:01,-4.9667,23.45,72.12,85,100,2.21
538,Jaciara,BR,2022-02-12 00:10:38,-15.9653,-54.9683,71.53,95,100,2.26
539,Borovoy,RU,2022-02-12 00:10:38,55.4333,86.0833,-10.12,77,58,8.95
540,Cantaura,VE,2022-02-12 00:10:39,9.3057,-64.3584,79.07,58,34,13.27
541,Faya,SA,2022-02-12 00:09:49,18.3851,42.4509,50.52,84,39,3.8
542,Ondangwa,NA,2022-02-12 00:10:39,-17.9167,15.95,73.33,71,82,5.84
543,Portland,US,2022-02-12 00:09:10,45.5234,-122.6762,67.6,29,20,24.16
544,Bonfim,BR,2022-02-12 00:10:40,3.0833,-59.95,84.78,50,76,9.89
545,Navrongo,GH,2022-02-12 00:10:40,10.8956,-1.0921,77.58,12,50,7.2
546,Shache,CN,2022-02-12 00:10:40,38.4167,77.2406,28.78,52,43,1.3
547,Faridpur,BD,2022-02-12 00:10:40,23.6,89.8333,60.8,61,0,5.73
548,Suez,EG,2022-02-12 00:10:41,29.9737,32.5263,52.3,70,0,6.69
549,Jinchang,CN,2022-02-12 00:10:41,38.4953,102.1739,20.17,77,87,4.59
550,Turukhansk,RU,2022-02-12 00:11:42,65.8167,87.9833,-21.62,89,10,5.32
551,Tabou,CI,2022-02-12 00:11:42,4.423,-7.3528,78.1,88,45,3.78
552,El Alto,PE,2022-02-12 00:11:42,-4.2714,-81.2147,71.33,75,33,13.4
553,Loukhi,RU,2022-02-12 00:11:42,66.0764,33.0381,18.19,92,64,8.12
554,Suruc,TR,2022-02-12 00:11:43,36.9761,38.425,41.2,62,0,6.58
555,Kiunga,PG,2022-02-12 00:11:43,-6.1219,141.2906,83.03,69,96,1.74
556,Coos Bay,US,2022-02-12 00:11:44,43.3665,-124.2179,66.31,63,0,9.22
557,Dudinka,RU,2022-02-12 00:09:58,69.4058,86.1778,-11.4,87,91,13.96
558,Pozzuoli,IT,2022-02-12 00:11:44,40.832,14.11,51.15,91,0,1.99
559,Bandar-E Lengeh,IR,2022-02-12 00:11:44,26.5579,54.8807,67.6,59,0,4.47
560,La Rioja,ES,2022-02-12 00:10:05,42.25,-2.5,36.05,91,48,3.83
561,Kamina,CD,2022-02-12 00:11:45,-8.7386,24.9906,62.22,94,99,2.62
562,Oil City,US,2022-02-12 00:08:28,41.4339,-79.7064,48.25,72,100,17.27
563,Puro,PH,2022-02-12 00:11:45,12.4841,123.3827,77.29,89,94,11.23
564,Mitsamiouli,KM,2022-02-12 00:11:46,-11.3847,43.2844,79.68,76,100,5.77
565,Balkanabat,TM,2022-02-12 00:11:46,39.5108,54.3671,41.29,70,12,0.85
566,Neiafu,TO,2022-02-12 00:11:46,-18.65,-173.9833,86.68,79,40,10.36
567,Akdepe,TM,2022-02-12 00:11:47,42.0551,59.3788,33.8,66,33,6.24
568,Treinta Y Tres,UY,2022-02-12 00:11:47,-33.2333,-54.3833,73.81,78,12,15.12
569,Podu Iloaiei,RO,2022-02-12 00:11:47,47.2167,27.2667,44.94,83,52,16.64
570,Lac Du Bonnet,CA,2022-02-12 00:11:48,50.2536,-96.0612,-18.65,95,62,8.08
571,Hovd,MN,2022-02-12 00:11:48,48.0056,91.6419,-15.48,86,85,4.07
572,Ust-Tarka,RU,2022-02-12 00:11:48,55.5672,75.705,-16.78,100,35,7.07
573,Madimba,TZ,2022-02-12 00:11:49,-10.4,40.3333,76.96,86,100,2.84
574,El Dorado,US,2022-02-12 00:11:49,38.7666,-120.5177,70.43,45,2,1.99
575,Matay,EG,2022-02-12 00:11:49,28.419,30.7792,50.86,65,0,9.24
576,Lyngseidet,NO,2022-02-12 00:11:49,69.5763,20.2189,26.69,90,100,8.5
577,Flin Flon,CA,2022-02-12 00:11:50,54.7682,-101.865,-12.26,90,74,4.14
